,City,Country,Temperature (F),Latitude,Longitude,Humidity (%),Cloudiness (%),Wind Speed (mph)
0,Tivaouane,SN,66.2,14.95,-16.81,52,12,14.99
1,Cape Town,ZA,68.0,-33.93,18.42,68,75,10.29
2,Ushuaia,AR,48.2,-54.81,-68.31,61,75,28.86
3,Beringovskiy,RU,-13.65,63.05,179.32,100,0,1.05
4,Geraldton,CA,-5.81,49.72,-86.95,70,90,10.29
